[
    {
        "name": "Adler Apotheke",
        "kategorie": "Apotheke",
        "adresse": "Bahnhofstraße 21, 59423 Unna, Deutschland",
        "lat": 51.53625,
        "lon": 7.69121,
        "telefon": "02303 13100",
        "website": "https://ihreapotheken.de/apotheke/adler-apotheke-unna-59423-407",
        "beschreibung": ""
    },
    {
        "name": "Aktiv Gesundheit & Fitness",
        "kategorie": "Fitnessstudio",
        "adresse": "Nordring 35, 59423 Unna, Deutschland",
        "lat": 51.53632,
        "lon": 7.68596,
        "telefon": "02303 239294",
        "website": "https://www.hospitalverbund-aktiv.de/",
        "beschreibung": "",
        "fachrichtung": ""
    },
    {
        "name": "Alexander Heinicke | Ästhetische Gesichtschirurgie & Medical Spa",
        "kategorie": "Arzt",
        "adresse": "Hammer Str. 2, 59425 Unna, Deutschland",
        "lat": 51.53975,
        "lon": 7.69013,
        "telefon": "02303 5948300",
        "website": "https://alexanderheinicke.de/#gbp",
        "beschreibung": "",
        "fachrichtung": "Zahnarzt"
    },
    {
        "name": "all inclusive Fitness Unna",
        "kategorie": "Fitnessstudio",
        "adresse": "Hertingerstraße 17, 59423 Unna, Deutschland",
        "lat": 51.5335,
        "lon": 7.688,
        "telefon": "01579 2633505",
        "website": "https://www.ai-fitness.de/studios/unna?utm_source=ExtNet&utm_medium=Yext",
        "beschreibung": ""
    },
    {
        "name": "Allgemeine Notfalldienst-Praxis der KVWL",
        "kategorie": "Arzt",
        "adresse": "Wasserstraße 26, 59423 Unna, Deutschland",
        "lat": 51.53322,
        "lon": 7.6923,
        "telefon": "",
        "website": "https://www.kvwl.de/notfalldienst",
        "beschreibung": "",
        "fachrichtung": "Notdienst"
    },
    {
        "name": "Anett Rammhold",
        "kategorie": "Arzt",
        "adresse": "Kamener Str. 16, 59425 Unna, Deutschland",
        "lat": 51.55466,
        "lon": 7.68426,
        "telefon": "02303 61061",
        "website": "",
        "beschreibung": "",
        "fachrichtung": "Augenarzt"
    },
    {
        "name": "Heiko Liedtke",
        "kategorie": "Arzt",
        "adresse": "Medical Center II am CKU Mitte, Ob. Husemannstraße 3, 59423 Unna, Deutschland",
        "lat": 51.53715,
        "lon": 7.68607,
        "telefon": "02303 254990",
        "website": "http://www.arztpraxis-liedtke.de/",
        "beschreibung": "",
        "fachrichtung": "Allgemeinmedizin"
    },
    {
        "name": "Arztpraxis Wirtz",
        "kategorie": "Arzt",
        "adresse": "Morgenstraße 3, 59423 Unna, Deutschland",
        "lat": 51.53572,
        "lon": 7.69135,
        "telefon": "02303 2403",
        "website": "",
        "beschreibung": "",
        "fachrichtung": "Allgemeinmedizin"
    },
    {
        "name": "ATHERA Unna - Zentrum für Physio- und Ergotherapie",
        "kategorie": "Physiotherapie",
        "adresse": "Falkstraße 2-4, 59423 Unna, Deutschland",
        "lat": 51.53437,
        "lon": 7.6757,
        "telefon": "02303 9590340",
        "website": "https://athera.info/unna/",
        "beschreibung": ""
    },
    {
        "name": "Augenarztpraxis Balmaceda Schickentanz",
        "kategorie": "Arzt",
        "adresse": "Niesenstraße 2, 59423 Unna, Deutschland",
        "lat": 51.53621,
        "lon": 7.69057,
        "telefon": "02303 21078",
        "website": "https://www.augenarzt-unna.de/",
        "beschreibung": "",
        "fachrichtung": "Augenarzt"
    },
    {
        "name": "Bären Apotheke",
        "kategorie": "Apotheke",
        "adresse": "Zechenstraße 8, 59425 Unna, Deutschland",
        "lat": 51.55469,
        "lon": 7.68582,
        "telefon": "02303 967210",
        "website": "http://www.bärenapotheke-königsborn.de/",
        "beschreibung": ""
    },
    {
        "name": "Bio Physio UG (haftungsbeschränkt)",
        "kategorie": "Physiotherapie",
        "adresse": "Hertingerstraße 162, 59427 Unna, Deutschland",
        "lat": 51.51497,
        "lon": 7.67101,
        "telefon": "02303 778300",
        "website": "",
        "beschreibung": ""
    },
    {
        "name": "Biophysio - Institut",
        "kategorie": "Physiotherapie",
        "adresse": "Hertingerstraße 162, 59427 Unna, Deutschland",
        "lat": 51.51497,
        "lon": 7.67101,
        "telefon": "02303 772734",
        "website": "",
        "beschreibung": ""
    },
    {
        "name": "Campus-Apotheke am EK Unna",
        "kategorie": "Apotheke",
        "adresse": "Falkstraße 4, 59423 Unna, Deutschland",
        "lat": 51.53416,
        "lon": 7.67569,
        "telefon": "02303 9426360",
        "website": "https://www.campus-apotheke-unna.de/",
        "beschreibung": ""
    },
    {
        "name": "Christian Grüger",
        "kategorie": "Physiotherapie",
        "adresse": "Hertingerstraße 98E, 59423 Unna, Deutschland",
        "lat": 51.52473,
        "lon": 7.68041,
        "telefon": "",
        "website": "https://www.physio-grueger.de/",
        "beschreibung": ""
    },
    {
        "name": "Christiane Hartmann",
        "kategorie": "Physiotherapie",
        "adresse": "Flügelstraße 9, 59423 Unna, Deutschland",
        "lat": 51.53393,
        "lon": 7.68838,
        "telefon": "02303 238297",
        "website": "",
        "beschreibung": ""
    },
    {
        "name": "Christliches Klinikum Unna | Mitte - Zentrale Notaufnahme",
        "kategorie": "Krankenhaus",
        "adresse": "Ob. Husemannstraße 2, 59423 Unna, Deutschland",
        "lat": 51.53682,
        "lon": 7.68511,
        "telefon": "02303 1001850",
        "website": "https://www.christliches-klinikum.de/zentrale-notaufnahme-mitte.html",
        "beschreibung": ""
    },
    {
        "name": "Christliches Klinikum Unna | West - Notaufnahme",
        "kategorie": "Krankenhaus",
        "adresse": "Holbeinstraße 10, 59423 Unna, Deutschland",
        "lat": 51.53324,
        "lon": 7.67661,
        "telefon": "02303 106106",
        "website": "https://www.christliches-klinikum.de/zentrale-notaufnahme-west.html",
        "beschreibung": ""
    },
    {
        "name": "COMPLETE Physio - Pilates & Yoga Unna",
        "kategorie": "Physiotherapie",
        "adresse": "Hertingerstraße 48, 59423 Unna, Deutschland",
        "lat": 51.53147,
        "lon": 7.68626,
        "telefon": "02303 5887297",
        "website": "https://www.completepilates-yogaunna.de/",
        "beschreibung": ""
    },
    {
        "name": "das Therapiehaus Unna für Physiotherapie & Osteopathie",
        "kategorie": "Physiotherapie",
        "adresse": "Bahnhofstraße 58, 59425 Unna, Deutschland",
        "lat": 51.53895,
        "lon": 7.69093,
        "telefon": "02303 9009099",
        "website": "https://www.das-therapiehaus-unna.de/",
        "beschreibung": ""
    },
    {
        "name": "Dr. B. Kohlschmidt u. S. Fulfs Zahnärztinnen",
        "kategorie": "Arzt",
        "adresse": "Am Hertinger Tor 2d, 59423 Unna, Deutschland",
        "lat": 51.52989,
        "lon": 7.68553,
        "telefon": "02303 21664",
        "website": "http://www.zahnaerzte-unna.de/",
        "beschreibung": "",
        "fachrichtung": "Zahnarzt"
    },
    {
        "name": "Dr. Coen's Apotheke Berliner Allee",
        "kategorie": "Apotheke",
        "adresse": "Berliner Allee 20, 59425 Unna, Deutschland",
        "lat": 51.54944,
        "lon": 7.6923,
        "telefon": "02303 61616",
        "website": "https://www.apo-berliner-allee.com/",
        "beschreibung": ""
    },
    {
        "name": "Dr. Coen's Ring Apotheke",
        "kategorie": "Apotheke",
        "adresse": "Bahnhofstraße 41, 59423 Unna, Deutschland",
        "lat": 51.53777,
        "lon": 7.69133,
        "telefon": "02303 12244",
        "website": "http://www.ring-apotheke.de/",
        "beschreibung": ""
    },
    {
        "name": "Dr. Friedhelm Ufer Zahnarzt",
        "kategorie": "Arzt",
        "adresse": "Friedrich-Ebert-Straße 108, 59425 Unna, Deutschland",
        "lat": 51.54969,
        "lon": 7.68183,
        "telefon": "02303 61381",
        "website": "",
        "beschreibung": "",
        "fachrichtung": "Zahnarzt"
    },
    {
        "name": "Dr. Gette & Partner Kieferorthopäden",
        "kategorie": "Arzt",
        "adresse": "Ostring 9-11, 59423 Unna, Deutschland",
        "lat": 51.53415,
        "lon": 7.6925,
        "telefon": "02303 2417",
        "website": "http://www.kieferorthopaede-unna.de/",
        "beschreibung": "",
        "fachrichtung": "Zahnarzt"
    },
    {
        "name": "Dr. med. dent. Henrike Ellerich",
        "kategorie": "Arzt",
        "adresse": "Bergpfad 7, 59423 Unna, Deutschland",
        "lat": 51.5311,
        "lon": 7.6871,
        "telefon": "02303 986980",
        "website": "",
        "beschreibung": "",
        "fachrichtung": "Zahnarzt"
    },
    {
        "name": "Dr. med. Gretel Bansi",
        "kategorie": "Arzt",
        "adresse": "Hertingerstraße 16, 59423 Unna, Deutschland",
        "lat": 51.53341,
        "lon": 7.68891,
        "telefon": "02303 16011",
        "website": "https://www.allgemeinmedizin-unna.de/",
        "beschreibung": "",
        "fachrichtung": "Allgemeinmedizin"
    },
    {
        "name": "Dr. med. Guido Hein",
        "kategorie": "Arzt",
        "adresse": "Morgenstraße 3, 59423 Unna, Deutschland",
        "lat": 51.5357,
        "lon": 7.69142,
        "telefon": "02303 13977",
        "website": "https://doktorhein.de/",
        "beschreibung": "",
        "fachrichtung": "Kinderarzt"
    },
    {
        "name": "Dr. med. Johannes Tatsios",
        "kategorie": "Arzt",
        "adresse": "Morgenstraße 3, 59423 Unna, Deutschland",
        "lat": 51.5357,
        "lon": 7.69142,
        "telefon": "02303 9688010",
        "website": "",
        "beschreibung": "",
        "fachrichtung": "Orthopädie"
    },
    {
        "name": "Dr. med. Ralf Dollenkamp, Dr. med. Kathrin Püttmann und Dr. med. Bianca Dröge",
        "kategorie": "Arzt",
        "adresse": "Falkstraße 2-4, 59423 Unna, Deutschland",
        "lat": 51.53428,
        "lon": 7.6757,
        "telefon": "02303 1704",
        "website": "http://www.campusdocs.de/",
        "beschreibung": "",
        "fachrichtung": "Allgemeinmedizin"
    },
    {
        "name": "Dr. med. Roland Bonmann - STATERAmed - PRAXIS FÜR FUNKTIONELLE MEDIZIN UND ORTHOPÄDIE",
        "kategorie": "Arzt",
        "adresse": "Schäferstraße 30, 59423 Unna, Deutschland",
        "lat": 51.53637,
        "lon": 7.68988,
        "telefon": "02303 14003",
        "website": "https://www.stateramed.de/",
        "beschreibung": "",
        "fachrichtung": "Orthopädie"
    },
    {
        "name": "Dr. med. Wolfgang Kuck",
        "kategorie": "Arzt",
        "adresse": "Lünerner Dorfstraße 3, 59427 Unna, Deutschland",
        "lat": 51.54798,
        "lon": 7.76236,
        "telefon": "02303 2542994",
        "website": "http://www.dr-kuck.de/",
        "beschreibung": "",
        "fachrichtung": "Allgemeinmedizin"
    },
    {
        "name": "Dr. Rita Blume",
        "kategorie": "Arzt",
        "adresse": "Bergpfad 28A, 59423 Unna, Deutschland",
        "lat": 51.52881,
        "lon": 7.68692,
        "telefon": "02303 80106",
        "website": "",
        "beschreibung": "",
        "fachrichtung": "Kinderarzt"
    },
    {
        "name": "Dr. Sabrina Lange - Praxis für Kieferorthopädie",
        "kategorie": "Arzt",
        "adresse": "Hammer Str. 4, 59425 Unna, Deutschland",
        "lat": 51.53977,
        "lon": 7.6912,
        "telefon": "02303 9835415",
        "website": "https://www.kieferorthopaedie-unna.eu/",
        "beschreibung": "",
        "fachrichtung": "Zahnarzt"
    },
    {
        "name": "Dr. Sebastian Kuntz",
        "kategorie": "Arzt",
        "adresse": "Blumenstraße 2, 59425 Unna, Deutschland",
        "lat": 51.55487,
        "lon": 7.68388,
        "telefon": "02303 66220",
        "website": "https://www.zahnarztpraxisunna.de/",
        "beschreibung": "",
        "fachrichtung": "Zahnarzt"
    },
    {
        "name": "Dr. Werner Püttmann",
        "kategorie": "Arzt",
        "adresse": "Morgenstraße 1, 59423 Unna, Deutschland",
        "lat": 51.53573,
        "lon": 7.69117,
        "telefon": "02303 13566",
        "website": "",
        "beschreibung": "",
        "fachrichtung": "Orthopädie"
    },
    {
        "name": "Dr.med. Andreas Schulte",
        "kategorie": "Arzt",
        "adresse": "Wilhelminenstraße 12A, 59425 Unna, Deutschland",
        "lat": 51.55948,
        "lon": 7.68364,
        "telefon": "02303 983096",
        "website": "",
        "beschreibung": "",
        "fachrichtung": "Allgemeinmedizin"
    },
    {
        "name": "Dr.med. Anke Heisterkamp Fachärztin f. Allgemeinmedizin",
        "kategorie": "Arzt",
        "adresse": "Holzwickeder Str. 2A, 59427 Unna, Deutschland",
        "lat": 51.50394,
        "lon": 7.67098,
        "telefon": "02303 89565",
        "website": "",
        "beschreibung": "",
        "fachrichtung": "Allgemeinmedizin"
    },
    {
        "name": "Dr.med. Friederike Gensler",
        "kategorie": "Arzt",
        "adresse": "Am, Nordring 3, 59423 Unna, Deutschland",
        "lat": 51.53785,
        "lon": 7.68983,
        "telefon": "02303 12301",
        "website": "http://www.praxisgensler.de/",
        "beschreibung": "",
        "fachrichtung": "Allgemeinmedizin"
    },
    {
        "name": "Dr.med. Thomas Foltys",
        "kategorie": "Arzt",
        "adresse": "Westhemmerder Weg 28, 59427 Unna, Deutschland",
        "lat": 51.54905,
        "lon": 7.80441,
        "telefon": "02308 871",
        "website": "https://hausaerzte.org/unna/dr-med-thomas-foltys/",
        "beschreibung": "",
        "fachrichtung": "Allgemeinmedizin"
    },
    {
        "name": "Dres. med. Frank Plum & Antje Plum - Augenzentrum Unna MVZ GmbH",
        "kategorie": "Arzt",
        "adresse": "Ostring 31, 59423 Unna, Deutschland",
        "lat": 51.53664,
        "lon": 7.69368,
        "telefon": "02303 22020",
        "website": "http://www.augenzentrum-unna.de/",
        "beschreibung": "",
        "fachrichtung": "Augenarzt"
    },
    {
        "name": "drs. Leonard Stevelmans",
        "kategorie": "Arzt",
        "adresse": "Kamener Str. 20, 59425 Unna, Deutschland",
        "lat": 51.55519,
        "lon": 7.68392,
        "telefon": "02303 68254",
        "website": "https://www.jameda.de/unna/zahnaerzte/implantologie/drs-leonard-stevelmans/uebersicht/80235941_1/?utm_medium=GMB&utm_source=GMB&utm_campaign=GMB",
        "beschreibung": "",
        "fachrichtung": "Zahnarzt"
    },
    {
        "name": "Ergoteam Unna",
        "kategorie": "Physiotherapie",
        "adresse": "Am Kastanienhof 4, 59423 Unna, Deutschland",
        "lat": 51.52447,
        "lon": 7.66946,
        "telefon": "02303 9524264",
        "website": "http://www.ergoteam-unna.de/",
        "beschreibung": ""
    },
    {
        "name": "Eulen-Apotheke",
        "kategorie": "Apotheke",
        "adresse": "Hertingerstraße 18, 59423 Unna, Deutschland",
        "lat": 51.53341,
        "lon": 7.68897,
        "telefon": "02303 16400",
        "website": "https://www.eulen-apotheke-unna.de/",
        "beschreibung": ""
    },
    {
        "name": "Evidia MVZ Radiologie Unna",
        "kategorie": "Arzt",
        "adresse": "Holbeinstraße 10a, 59423 Unna, Deutschland",
        "lat": 51.53378,
        "lon": 7.67666,
        "telefon": "02303 332233",
        "website": "https://evidia.de/standorte/radiologie-unna",
        "beschreibung": "",
        "fachrichtung": "Radiologie"
    },
    {
        "name": "Fachklinik für Kinderneurologie und Sozialpädiatrie Königsborn",
        "kategorie": "Arzt",
        "adresse": "Zimmerpl. 1, 59425 Unna, Deutschland",
        "lat": 51.55133,
        "lon": 7.68231,
        "telefon": "02303 9670261",
        "website": "https://www.lebenszentrum-koenigsborn.de/einrichtungen/fachklinik",
        "beschreibung": "",
        "fachrichtung": "Kinderarzt"
    },
    {
        "name": "FitX Fitnessstudio",
        "kategorie": "Fitnessstudio",
        "adresse": "Kantstraße 1, 59425 Unna, Deutschland",
        "lat": 51.53882,
        "lon": 7.68812,
        "telefon": "02303 9209441",
        "website": "https://www.fitx.de/fitnessstudios/unna-stadt?utm_source=google&utm_medium=yext&utm_campaign=00117",
        "beschreibung": ""
    },
    {
        "name": "Flemming Dental Unna",
        "kategorie": "Arzt",
        "adresse": "Max-Planck-Straße 1, 59423 Unna, Deutschland",
        "lat": 51.53452,
        "lon": 7.71419,
        "telefon": "02303 981130",
        "website": "https://www.flemming-dental.de/labor-unna/",
        "beschreibung": "",
        "fachrichtung": "Zahnarzt"
    },
    {
        "name": "Fr.Margarita und Hr. Eduard Krun",
        "kategorie": "Arzt",
        "adresse": "Massener Hellweg 39, 59427 Unna, Deutschland",
        "lat": 51.53807,
        "lon": 7.64675,
        "telefon": "02303 50197",
        "website": "http://www.hausarztpraxiskrun.de/aktuelles",
        "beschreibung": "",
        "fachrichtung": "Allgemeinmedizin"
    },
    {
        "name": "Frau Anne-Katrin Hoestermann",
        "kategorie": "Arzt",
        "adresse": "Nordring 3, 59423 Unna, Deutschland",
        "lat": 51.53789,
        "lon": 7.68981,
        "telefon": "02303 12322",
        "website": "",
        "beschreibung": "",
        "fachrichtung": "Frauenarzt"
    },
    {
        "name": "Frau Barbara Weghake",
        "kategorie": "Arzt",
        "adresse": "Morgenstraße 1, 59423 Unna, Deutschland",
        "lat": 51.53573,
        "lon": 7.69117,
        "telefon": "02303 1704",
        "website": "",
        "beschreibung": "",
        "fachrichtung": "Allgemeinmedizin"
    },
    {
        "name": "Frau Carola Held",
        "kategorie": "Physiotherapie",
        "adresse": "Wilhelminenstraße 10, 59425 Unna, Deutschland",
        "lat": 51.55913,
        "lon": 7.68296,
        "telefon": "02303 68877",
        "website": "",
        "beschreibung": ""
    },
    {
        "name": "Frau Christina Luncke",
        "kategorie": "Physiotherapie",
        "adresse": "Bruchstraße 16, 59425 Unna, Deutschland",
        "lat": 51.5442,
        "lon": 7.7339,
        "telefon": "02303 490740",
        "website": "",
        "beschreibung": ""
    },
    {
        "name": "Frau Dr. Annegret Brabender",
        "kategorie": "Arzt",
        "adresse": "Bergpfad 7, 59423 Unna, Deutschland",
        "lat": 51.5311,
        "lon": 7.6871,
        "telefon": "02303 986980",
        "website": "",
        "beschreibung": "",
        "fachrichtung": "Zahnarzt"
    },
    {
        "name": "Frau Dr. med. Annemarie Fiebig-Pollmann",
        "kategorie": "Arzt",
        "adresse": "Morgenstraße 1, 59423 Unna, Deutschland",
        "lat": 51.53573,
        "lon": 7.69117,
        "telefon": "02303 13052",
        "website": "http://www.dr-minkenberg.de/",
        "beschreibung": "",
        "fachrichtung": "Allgemeinmedizin"
    },
    {
        "name": "Frau Dr. med. dent. Kerstin Schumacher",
        "kategorie": "Arzt",
        "adresse": "Nordring 35, 59423 Unna, Deutschland",
        "lat": 51.53633,
        "lon": 7.68593,
        "telefon": "02303 969798",
        "website": "https://www.zahnarztpraxis-schumacher.net/",
        "beschreibung": "",
        "fachrichtung": "Zahnarzt"
    },
    {
        "name": "Frau Dr. med. Karin Anne Hameister",
        "kategorie": "Arzt",
        "adresse": "Zimmerpl. 1, 59425 Unna, Deutschland",
        "lat": 51.55133,
        "lon": 7.68231,
        "telefon": "02303 9670261",
        "website": "",
        "beschreibung": "",
        "fachrichtung": "Kinderarzt"
    },
    {
        "name": "Frau Henriette Soos",
        "kategorie": "Arzt",
        "adresse": "Nordring 35, 59423 Unna, Deutschland",
        "lat": 51.53626,
        "lon": 7.68595,
        "telefon": "02303 1003940",
        "website": "https://frauenaerzte.org/unna/henriette-soos/",
        "beschreibung": "",
        "fachrichtung": "Frauenarzt"
    },
    {
        "name": "Frau Hildegard Aretz",
        "kategorie": "Arzt",
        "adresse": "Friedrich-Ebert-Straße 108, 59425 Unna, Deutschland",
        "lat": 51.54964,
        "lon": 7.68186,
        "telefon": "02303 61381",
        "website": "",
        "beschreibung": "",
        "fachrichtung": "Zahnarzt"
    },
    {
        "name": "Frau Klara Knobloch",
        "kategorie": "Arzt",
        "adresse": "Nordring 3, 59423 Unna, Deutschland",
        "lat": 51.53789,
        "lon": 7.68981,
        "telefon": "02303 1711",
        "website": "",
        "beschreibung": "",
        "fachrichtung": "Allgemeinmedizin"
    },
    {
        "name": "Frau Susanne Gertenbach",
        "kategorie": "Arzt",
        "adresse": "Holzwickeder Str. 2A, 59427 Unna, Deutschland",
        "lat": 51.50397,
        "lon": 7.67099,
        "telefon": "02303 89565",
        "website": "https://www.hospitalverbund-mvz.de/allgemeinmedizinische-praxis.html",
        "beschreibung": "",
        "fachrichtung": "Allgemeinmedizin"
    },
    {
        "name": "Frauenarzt Praxis Unna Dr.med. Patrick C. Hirsch, Nina Rütten & Dr.med. Jana Lesnik",
        "kategorie": "Arzt",
        "adresse": "Bahnhofstraße 18, 59423 Unna, Deutschland",
        "lat": 51.53606,
        "lon": 7.69079,
        "telefon": "02303 13133",
        "website": "http://www.frauenarztpraxis-unna.de/",
        "beschreibung": "",
        "fachrichtung": "Frauenarzt"
    },
    {
        "name": "Frauenarztpraxis Düllmann und Dr. Fennen",
        "kategorie": "Arzt",
        "adresse": "Nordring 3, 59423 Unna, Deutschland",
        "lat": 51.53799,
        "lon": 7.68985,
        "telefon": "02303 12322",
        "website": "https://www.gyn-unna.de/",
        "beschreibung": "",
        "fachrichtung": "Frauenarzt"
    },
    {
        "name": "Frauenarztpraxis Emmerich",
        "kategorie": "Arzt",
        "adresse": "Flügelstraße 9, 59423 Unna, Deutschland",
        "lat": 51.53391,
        "lon": 7.68843,
        "telefon": "02303 9688833",
        "website": "https://frauenarztpraxis-emmerich.de/",
        "beschreibung": "",
        "fachrichtung": "Frauenarzt"
    },
    {
        "name": "Frauenarztpraxis Rosmarin - Fachärztin für Gynäkologie und Geburtshilfe",
        "kategorie": "Arzt",
        "adresse": "Bahnhofstraße 17, 59423 Unna, Deutschland",
        "lat": 51.53595,
        "lon": 7.69123,
        "telefon": "02303 22070",
        "website": "https://frauenärztinnen-unna.de/",
        "beschreibung": "",
        "fachrichtung": "Frauenarzt"
    },
    {
        "name": "Gehrmeyer Sanitätshaus",
        "kategorie": "Sanitätshaus",
        "adresse": "Höingstraße 5-7, 59425 Unna, Deutschland",
        "lat": 51.53999,
        "lon": 7.70015,
        "telefon": "",
        "website": "",
        "beschreibung": ""
    },
    {
        "name": "Gemeinschaftspraxis Behrend",
        "kategorie": "Arzt",
        "adresse": "Bahnhofstraße 46, 59423 Unna, Deutschland",
        "lat": 51.53833,
        "lon": 7.6902,
        "telefon": "02303 9596490",
        "website": "https://praxis-behrend.de/",
        "beschreibung": "",
        "fachrichtung": "Allgemeinmedizin"
    },
    {
        "name": "Gemeinschaftspraxis Dres. Dormann",
        "kategorie": "Arzt",
        "adresse": "Ostring 35, 59423 Unna, Deutschland",
        "lat": 51.53719,
        "lon": 7.69394,
        "telefon": "02303 21028",
        "website": "https://www.dres-dormann.de/",
        "beschreibung": "",
        "fachrichtung": "Allgemeinmedizin"
    },
    {
        "name": "Gemeinschaftspraxis Nataliia Kaplun & Julia Solotarevski",
        "kategorie": "Arzt",
        "adresse": "Schäferstraße 26, 59423 Unna, Deutschland",
        "lat": 51.53621,
        "lon": 7.68981,
        "telefon": "02303 2609",
        "website": "https://gynpraxis-unna.de/",
        "beschreibung": "",
        "fachrichtung": "Frauenarzt"
    },
    {
        "name": "Gemeinschaftspraxis Ulrich Schmidt und Gretel Bansi",
        "kategorie": "Arzt",
        "adresse": "Hertingerstraße 16, 59423 Unna, Deutschland",
        "lat": 51.53341,
        "lon": 7.68891,
        "telefon": "02303 16011",
        "website": "https://www.allgemeinmedizin-unna.de/",
        "beschreibung": "",
        "fachrichtung": "Allgemeinmedizin"
    },
    {
        "name": "Gerd Borkowski",
        "kategorie": "Arzt",
        "adresse": "Ob. Husemannstraße 3, 59423 Unna, Deutschland",
        "lat": 51.53715,
        "lon": 7.68607,
        "telefon": "02303 16013",
        "website": "",
        "beschreibung": "",
        "fachrichtung": "HNO"
    },
    {
        "name": "Gesundheit-Shop24",
        "kategorie": "Apotheke",
        "adresse": "Zechenstraße 80, 59425 Unna, Deutschland",
        "lat": 51.55585,
        "lon": 7.70028,
        "telefon": "02303 9797329",
        "website": "",
        "beschreibung": ""
    },
    {
        "name": "Hansa Apotheke Inh. H. Erfanian",
        "kategorie": "Apotheke",
        "adresse": "Morgenstraße 1, 59423 Unna, Deutschland",
        "lat": 51.53571,
        "lon": 7.69116,
        "telefon": "02303 15105",
        "website": "http://www.hansa-apotheke-unna.de/",
        "beschreibung": ""
    },
    {
        "name": "Harger Gesundheitszentrum",
        "kategorie": "Physiotherapie",
        "adresse": "Hammer Str. 4-16, 59425 Unna, Deutschland",
        "lat": 51.5399,
        "lon": 7.69078,
        "telefon": "02303 9834900",
        "website": "",
        "beschreibung": ""
    },
    {
        "name": "Hausarztpraxis Aloklat",
        "kategorie": "Arzt",
        "adresse": "Kamener Str. 20, 59425 Unna, Deutschland",
        "lat": 51.55519,
        "lon": 7.68392,
        "telefon": "02303 62819",
        "website": "http://aloklat.de/",
        "beschreibung": "",
        "fachrichtung": "Allgemeinmedizin"
    },
    {
        "name": "Hausarztpraxis Beermann",
        "kategorie": "Arzt",
        "adresse": "Hertingerstraße 14, 59423 Unna, Deutschland",
        "lat": 51.53338,
        "lon": 7.68921,
        "telefon": "02303 239813",
        "website": "https://hausarzt-beermann.de/",
        "beschreibung": "",
        "fachrichtung": "Allgemeinmedizin"
    },
    {
        "name": "Hellweg Apotheke Hemmerde",
        "kategorie": "Apotheke",
        "adresse": "Dr. Anke Lochmann e.K, Wannweg 44, 59427 Unna, Deutschland",
        "lat": 51.54908,
        "lon": 7.80472,
        "telefon": "02308 880",
        "website": "https://hellweg-apotheke-unna.de/",
        "beschreibung": ""
    },
    {
        "name": "Helmut Wendels Fitnesscenter",
        "kategorie": "Fitnessstudio",
        "adresse": "Morgenstraße 28, 59423 Unna, Deutschland",
        "lat": 51.53533,
        "lon": 7.69489,
        "telefon": "02303 22260",
        "website": "http://www.checkin-fitness.de/",
        "beschreibung": ""
    },
    {
        "name": "Herr Basel Askaf, Frauenarzt",
        "kategorie": "Arzt",
        "adresse": "Kleistraße 2, 59427 Unna, Deutschland",
        "lat": 51.53801,
        "lon": 7.64949,
        "telefon": "02303 5767",
        "website": "http://www.frauenarzt-askaf.de/",
        "beschreibung": "",
        "fachrichtung": "Frauenarzt"
    },
    {
        "name": "Herr Bernt Möritz",
        "kategorie": "Arzt",
        "adresse": "Ob. Husemannstraße 2, 59423 Unna, Deutschland",
        "lat": 51.53721,
        "lon": 7.68472,
        "telefon": "02303 253540",
        "website": "",
        "beschreibung": "",
        "fachrichtung": "Orthopädie"
    },
    {
        "name": "Herr Dr. med. dent. Martin Braatz",
        "kategorie": "Arzt",
        "adresse": "Ostring 37, 59423 Unna, Deutschland",
        "lat": 51.53742,
        "lon": 7.69408,
        "telefon": "02303 967575",
        "website": "http://www.dr-braatz.de/index.php?id=15",
        "beschreibung": "",
        "fachrichtung": "Zahnarzt"
    },
    {
        "name": "Herr Dr. med. Dirk Trebing",
        "kategorie": "Arzt",
        "adresse": "Ob. Husemannstraße 3, 59423 Unna, Deutschland",
        "lat": 51.53713,
        "lon": 7.6862,
        "telefon": "02303 9295590",
        "website": "https://www.orthopädie-dr-trebing.de/",
        "beschreibung": "",
        "fachrichtung": "Orthopädie"
    },
    {
        "name": "Herr Dr. med. Edrisian",
        "kategorie": "Arzt",
        "adresse": "Ulrichswall 3, 59423 Unna, Deutschland",
        "lat": 51.53463,
        "lon": 7.6921,
        "telefon": "02303 239863",
        "website": "",
        "beschreibung": "",
        "fachrichtung": "Allgemeinmedizin"
    },
    {
        "name": "Herr Dr. med. Ralf Dollenkamp",
        "kategorie": "Arzt",
        "adresse": "Falkstraße 4, 59423 Unna, Deutschland",
        "lat": 51.53417,
        "lon": 7.67571,
        "telefon": "02303 1704",
        "website": "https://campusdocs.de/",
        "beschreibung": "",
        "fachrichtung": "Allgemeinmedizin"
    },
    {
        "name": "Herr Dr. med. Ralf Kieninger",
        "kategorie": "Arzt",
        "adresse": "Nordring 3, 59423 Unna, Deutschland",
        "lat": 51.53792,
        "lon": 7.68989,
        "telefon": "02303 14859",
        "website": "http://www.praxis-kieninger.de/",
        "beschreibung": "",
        "fachrichtung": "Allgemeinmedizin"
    },
    {
        "name": "Herr Reiner Günter",
        "kategorie": "Arzt",
        "adresse": "Frankfurter Str. 69, 59425 Unna, Deutschland",
        "lat": 51.54945,
        "lon": 7.6955,
        "telefon": "02303 961000",
        "website": "",
        "beschreibung": "",
        "fachrichtung": "Zahnarzt"
    },
    {
        "name": "Herr Sebastian Spellmeyer",
        "kategorie": "Arzt",
        "adresse": "Frankfurter Str. 69, 59425 Unna, Deutschland",
        "lat": 51.54945,
        "lon": 7.6955,
        "telefon": "02303 961000",
        "website": "",
        "beschreibung": "",
        "fachrichtung": "Zahnarzt"
    },
    {
        "name": "Herr Thomas Wich",
        "kategorie": "Arzt",
        "adresse": "Holbeinstraße 10A, 59423 Unna, Deutschland",
        "lat": 51.53381,
        "lon": 7.67689,
        "telefon": "02303 1003920",
        "website": "http://www.hospitalverbund-mvz.de/",
        "beschreibung": "",
        "fachrichtung": "Orthopädie"
    },
    {
        "name": "HNO im Medical Center",
        "kategorie": "Arzt",
        "adresse": "Ob. Husemannstraße 3, 59423 Unna, Deutschland",
        "lat": 51.53717,
        "lon": 7.68619,
        "telefon": "02303 16020",
        "website": "https://hno-medical-center-unna.de/",
        "beschreibung": "",
        "fachrichtung": "HNO"
    },
    {
        "name": "Horst Schubert Facharzt für Allgemeinmedizin",
        "kategorie": "Arzt",
        "adresse": "Kleistraße 2, 59427 Unna, Deutschland",
        "lat": 51.53801,
        "lon": 7.64943,
        "telefon": "02303 52043",
        "website": "https://hausarzt-amklei.de/",
        "beschreibung": "",
        "fachrichtung": "Allgemeinmedizin"
    },
    {
        "name": "Hospitalverbund MVZ Unna Dr. Sabine Seidl-Franzen u. Doctor-medic Raluca-Sorana Griguta",
        "kategorie": "Arzt",
        "adresse": "Holbeinstraße 10a, 59423 Unna, Deutschland",
        "lat": 51.53378,
        "lon": 7.67666,
        "telefon": "02303 1003910",
        "website": "https://www.hospitalverbund-mvz.de/",
        "beschreibung": "",
        "fachrichtung": "Orthopädie"
    },
    {
        "name": "Hospitalverbund MVZ Unna Dr. Stefanie Polte",
        "kategorie": "Arzt",
        "adresse": "Holbeinstraße 10 a, 59423 Unna, Deutschland",
        "lat": 51.53378,
        "lon": 7.67666,
        "telefon": "02303 1003900",
        "website": "https://www.hospitalverbund-mvz.de/",
        "beschreibung": "",
        "fachrichtung": "Orthopädie"
    },
    {
        "name": "Ines Minkus",
        "kategorie": "Arzt",
        "adresse": "Massener Str. 33, 59423 Unna, Deutschland",
        "lat": 51.53458,
        "lon": 7.68522,
        "telefon": "02303 770727",
        "website": "",
        "beschreibung": "",
        "fachrichtung": "Zahnarzt"
    },
    {
        "name": "Jan Mende - ärztliche Osteopathie",
        "kategorie": "Arzt",
        "adresse": "Viktoriastraße 25, 59423 Unna, Deutschland",
        "lat": 51.54104,
        "lon": 7.70172,
        "telefon": "02303 9593030",
        "website": "http://docmende.de/",
        "beschreibung": "",
        "fachrichtung": "Orthopädie"
    },
    {
        "name": "JC Fitness",
        "kategorie": "Fitnessstudio",
        "adresse": "Mühlenstraße 32, 59425 Unna, Deutschland",
        "lat": 51.5393,
        "lon": 7.67489,
        "telefon": "01578 5063004",
        "website": "https://www.jc-fitness.de/kontakt/",
        "beschreibung": ""
    },
    {
        "name": "Kinderarzt/-ärztin Frau Schwarck Unna Königsborn MVZ GmbH",
        "kategorie": "Arzt",
        "adresse": "Zechenstraße 8, 59425 Unna, Deutschland",
        "lat": 51.55476,
        "lon": 7.68572,
        "telefon": "02303 2537020",
        "website": "",
        "beschreibung": "",
        "fachrichtung": "Kinderarzt"
    },
    {
        "name": "Krankengymnastik-Massage-Lymphdrainage Privatpraxis Hanna Stukenbrok",
        "kategorie": "Physiotherapie",
        "adresse": "Otto-Holzapfel-Straße 90, 59427 Unna, Deutschland",
        "lat": 51.537,
        "lon": 7.65507,
        "telefon": "02303 538537",
        "website": "http://www.physiotherapie-stukenbrok.de/",
        "beschreibung": ""
    },
    {
        "name": "Kruse Oliver Frauenarzt",
        "kategorie": "Arzt",
        "adresse": "Berliner Allee 20, 59425 Unna, Deutschland",
        "lat": 51.54946,
        "lon": 7.69256,
        "telefon": "02303 2477",
        "website": "https://www.gynpraxis-kruse.de/",
        "beschreibung": "",
        "fachrichtung": "Frauenarzt"
    },
    {
        "name": "LEISTUNGSZENTRUM UNNA ATHLETIK - KÄLTEKAMMER - EMS TRAINING - FITNESS",
        "kategorie": "Fitnessstudio",
        "adresse": "Kamener Str. 58, 59425 Unna, Deutschland",
        "lat": 51.55913,
        "lon": 7.68157,
        "telefon": "02303 9299315",
        "website": "http://lz-un.de/",
        "beschreibung": ""
    },
    {
        "name": "Maral Yaprak-Erim Kinderärztin",
        "kategorie": "Arzt",
        "adresse": "Gabelsbergerstraße 5, 59425 Unna, Deutschland",
        "lat": 51.55148,
        "lon": 7.68407,
        "telefon": "02303 65222",
        "website": "http://www.yaprak-kinderarzt.de/",
        "beschreibung": "",
        "fachrichtung": "Kinderarzt"
    },
    {
        "name": "Matei Augenarztpraxis",
        "kategorie": "Arzt",
        "adresse": "Schäferstraße 5, 59423 Unna, Deutschland",
        "lat": 51.53539,
        "lon": 7.68979,
        "telefon": "02303 14445",
        "website": "https://www.augenarztpraxis-dr-matei-unna.de/",
        "beschreibung": "",
        "fachrichtung": "Augenarzt"
    },
    {
        "name": "Medical Center Unna I",
        "kategorie": "Krankenhaus",
        "adresse": "Nordring 35, 59423 Unna, Deutschland",
        "lat": 51.53633,
        "lon": 7.68593,
        "telefon": "02303 239294",
        "website": "https://www.christliches-klinikum.de/praxen-am-standort-mitte-west.html",
        "beschreibung": ""
    },
    {
        "name": "Medizinisches Versorgungszentrum Unna Königsborn (MVZ)",
        "kategorie": "Arzt",
        "adresse": "Zechenstraße 8, 59425 Unna, Deutschland",
        "lat": 51.5548,
        "lon": 7.68578,
        "telefon": "02303 253700",
        "website": "http://www.mvz-koenigsborn.de/",
        "beschreibung": "",
        "fachrichtung": "Allgemeinmedizin"
    },
    {
        "name": "molab - modulare mobilität",
        "kategorie": "Sanitätshaus",
        "adresse": "Otto-Hahn-Straße 38, 59423 Unna, Deutschland",
        "lat": 51.52772,
        "lon": 7.71315,
        "telefon": "02303 539956",
        "website": "https://molab.de/",
        "beschreibung": ""
    },
    {
        "name": "Mühlen-Apotheke",
        "kategorie": "Apotheke",
        "adresse": "Massener Hellweg 27, 59427 Unna, Deutschland",
        "lat": 51.53841,
        "lon": 7.64877,
        "telefon": "02303 50244",
        "website": "http://www.muehlen-apotheke-unna.de/",
        "beschreibung": ""
    },
    {
        "name": "MVZ Dr. Dr. Klaus Giesen und Franka Dimanski",
        "kategorie": "Arzt",
        "adresse": "Bahnhofstraße 16, 59423 Unna, Deutschland",
        "lat": 51.53596,
        "lon": 7.69077,
        "telefon": "02303 9029830",
        "website": "http://kieferchirurgie-dortmund.de/",
        "beschreibung": "",
        "fachrichtung": "Zahnarzt"
    },
    {
        "name": "MVZ Königsborn, Betriebsstätte Berliner Allee, Dr. med. Alexandr Raskuratov",
        "kategorie": "Arzt",
        "adresse": "Berliner Allee 20-22, 59425 Unna, Deutschland",
        "lat": 51.54947,
        "lon": 7.69241,
        "telefon": "02303 69944",
        "website": "https://www.mvzkoenigsborn.de/",
        "beschreibung": "",
        "fachrichtung": "Allgemeinmedizin"
    },
    {
        "name": "NYRA",
        "kategorie": "Fitnessstudio",
        "adresse": "Afferder Weg 181, 59425 Unna, Deutschland",
        "lat": 51.55927,
        "lon": 7.64952,
        "telefon": "02381 3381335",
        "website": "https://nyrapilates.com/",
        "beschreibung": ""
    },
    {
        "name": "Original Bootcamp - Outdoor Fitness | Bornekamp",
        "kategorie": "Fitnessstudio",
        "adresse": "Bornekampstraße 16, 59423 Unna, Deutschland",
        "lat": 51.53044,
        "lon": 7.6887,
        "telefon": "0221 95673376",
        "website": "https://www.original-bootcamp.com/unna?utm_source=googlemaps&utm_campaign=Bornekamp",
        "beschreibung": ""
    },
    {
        "name": "ORTHOMED Reha Zentrum Unna - Physiotherapie",
        "kategorie": "Physiotherapie",
        "adresse": "Käthe-Kollwitz-Ring 30, 59423 Unna, Deutschland",
        "lat": 51.53287,
        "lon": 7.68346,
        "telefon": "02303 251320",
        "website": "https://orthomed-unna.de/",
        "beschreibung": "",
        "fachrichtung": ""
    },
    {
        "name": "Orthopädie-Schuhtechnik Hitzegrad",
        "kategorie": "Sanitätshaus",
        "adresse": "Südring 15, 59423 Unna, Deutschland",
        "lat": 51.53185,
        "lon": 7.68887,
        "telefon": "02303 303512",
        "website": "http://www.hitzegrad.com/",
        "beschreibung": "",
        "fachrichtung": ""
    },
    {
        "name": "Orthopädisch-Neurochirurgisches Zentrum Unna",
        "kategorie": "Arzt",
        "adresse": "Falkstraße 2, 59423 Unna, Deutschland",
        "lat": 51.5343,
        "lon": 7.67569,
        "telefon": "02363 36690",
        "website": "http://www.onz-online.de/",
        "beschreibung": "",
        "fachrichtung": "Orthopädie"
    },
    {
        "name": "Orthopädisches Praxiszentrum Unna",
        "kategorie": "Arzt",
        "adresse": "Falkstraße 4, 59423 Unna, Deutschland",
        "lat": 51.53417,
        "lon": 7.67571,
        "telefon": "02303 13566",
        "website": "http://www.opz-unna.de/",
        "beschreibung": "",
        "fachrichtung": "Orthopädie"
    },
    {
        "name": "Osteopathie, Physiotherapie, Skoliose Therapie, Grave Mouchinho",
        "kategorie": "Physiotherapie",
        "adresse": "Ob. Husemannstraße 21, 59423 Unna, Deutschland",
        "lat": 51.53908,
        "lon": 7.68561,
        "telefon": "02303 3050588",
        "website": "https://physiotherapie-unna.de/",
        "beschreibung": ""
    },
    {
        "name": "Physio Unna, physiotherapeutische Gemeinschaftspraxis Döring&Steg",
        "kategorie": "Physiotherapie",
        "adresse": "Niesenstraße 2, 59423 Unna, Deutschland",
        "lat": 51.53622,
        "lon": 7.69055,
        "telefon": "02303 942266",
        "website": "http://www.physio-unna.de/",
        "beschreibung": ""
    },
    {
        "name": "Physioteam Krankengymnastik",
        "kategorie": "Physiotherapie",
        "adresse": "Am Kastanienhof 4, 59423 Unna, Deutschland",
        "lat": 51.52448,
        "lon": 7.66953,
        "telefon": "02303 968180",
        "website": "http://www.physioteam-unna.de/",
        "beschreibung": ""
    },
    {
        "name": "Physiotherapie am Nicolaiviertel",
        "kategorie": "Physiotherapie",
        "adresse": "Morgenstraße 1, 59423 Unna, Deutschland",
        "lat": 51.53571,
        "lon": 7.69116,
        "telefon": "02303 9790933",
        "website": "http://www.linktree.com/physio_am_nicolaiviertel",
        "beschreibung": ""
    },
    {
        "name": "Physiotherapie Balance & Vital",
        "kategorie": "Physiotherapie",
        "adresse": "Schäferstraße 3-5, 59423 Unna, Deutschland",
        "lat": 51.5354,
        "lon": 7.68982,
        "telefon": "02303 7783232",
        "website": "http://www.physio-balance-vital.de/",
        "beschreibung": ""
    },
    {
        "name": "Physiotherapie Heinrich Stasch",
        "kategorie": "Physiotherapie",
        "adresse": "Am Südfriedhof 2A, 59423 Unna, Deutschland",
        "lat": 51.53036,
        "lon": 7.70091,
        "telefon": "02303 6905023",
        "website": "",
        "beschreibung": ""
    },
    {
        "name": "Physiotherapie Martina Stickens",
        "kategorie": "Physiotherapie",
        "adresse": "Massener Hellweg 42, 59427 Unna, Deutschland",
        "lat": 51.53782,
        "lon": 7.6472,
        "telefon": "02303 51425",
        "website": "",
        "beschreibung": ""
    },
    {
        "name": "Physiotherapie Martina Zick",
        "kategorie": "Physiotherapie",
        "adresse": "Gerhart-Hauptmann-Straße 26, 59423 Unna, Deutschland",
        "lat": 51.53576,
        "lon": 7.68767,
        "telefon": "02303 920627",
        "website": "",
        "beschreibung": ""
    },
    {
        "name": "Physiotherapie mcphysio - it´s your life !",
        "kategorie": "Physiotherapie",
        "adresse": "Ostring 37, 59423 Unna, Deutschland",
        "lat": 51.53742,
        "lon": 7.69408,
        "telefon": "02303 21901",
        "website": "http://www.mcphysio.net/",
        "beschreibung": ""
    },
    {
        "name": "Physiotherapie Tritthart",
        "kategorie": "Physiotherapie",
        "adresse": "Flügelstraße 9/Etage 3, 59423 Unna, Deutschland",
        "lat": 51.53391,
        "lon": 7.68843,
        "telefon": "02303 238297",
        "website": "http://www.physio-tritthart.de/?utm_source=google&utm_medium=wix_google_business_profile&utm_campaign=10340379932439238001",
        "beschreibung": ""
    },
    {
        "name": "Physiotherapie Zentrum Unna",
        "kategorie": "Physiotherapie",
        "adresse": "Hammer Str. 4-16, 59425 Unna, Deutschland",
        "lat": 51.5399,
        "lon": 7.69078,
        "telefon": "02303 9834902",
        "website": "http://www.ptz-unna.de/",
        "beschreibung": ""
    },
    {
        "name": "Praxis am Königsborner Tor",
        "kategorie": "Arzt",
        "adresse": "Bahnhofstraße 60, 59423 Unna, Deutschland",
        "lat": 51.53896,
        "lon": 7.69088,
        "telefon": "02303 9830750",
        "website": "https://www.praxisamkoenigsbornertor.de/",
        "beschreibung": "",
        "fachrichtung": "Zahnarzt"
    },
    {
        "name": "Praxis Dr. med. Klaus Schönfelder",
        "kategorie": "Arzt",
        "adresse": "Gürtelstraße 18, 59423 Unna, Deutschland",
        "lat": 51.5332,
        "lon": 7.68736,
        "telefon": "02303 16009",
        "website": "",
        "beschreibung": "",
        "fachrichtung": "Frauenarzt"
    },
    {
        "name": "Praxis Dr. med. Melanie Henke - Frauenärztin in Unna-Königsborn",
        "kategorie": "Arzt",
        "adresse": "Blumenstraße 2, 59425 Unna, Deutschland",
        "lat": 51.55487,
        "lon": 7.68388,
        "telefon": "02303 69161",
        "website": "http://www.frauenaerztin-henke-unna.de/",
        "beschreibung": "",
        "fachrichtung": "Frauenarzt"
    },
    {
        "name": "Praxis Dr. Minkenberg & Team",
        "kategorie": "Arzt",
        "adresse": "Morgenstraße 1, 59423 Unna, Deutschland",
        "lat": 51.53573,
        "lon": 7.69114,
        "telefon": "02303 13052",
        "website": "https://www.dr-minkenberg.de/",
        "beschreibung": "",
        "fachrichtung": "Allgemeinmedizin"
    },
    {
        "name": "Praxis für ganzheitliche Physiotherapie Kamil Woditsch und Judith Bichmann GbR",
        "kategorie": "Physiotherapie",
        "adresse": "Kamener Str. 42, 59425 Unna, Deutschland",
        "lat": 51.55785,
        "lon": 7.68228,
        "telefon": "02303 2902282",
        "website": "http://www.physio-woditsch-bichmann.de/",
        "beschreibung": ""
    },
    {
        "name": "Praxis für Mund-, Kiefer- und Gesichtschirurgie Dr. Nicola Wortmann",
        "kategorie": "Arzt",
        "adresse": "Mozartstraße 1, 59423 Unna, Deutschland",
        "lat": 51.53799,
        "lon": 7.68755,
        "telefon": "02303 9690930",
        "website": "http://www.mkg-unna.de/",
        "beschreibung": "",
        "fachrichtung": "Zahnarzt"
    },
    {
        "name": "Praxis für Neurochirurgie Dr. Amir Al-Amin",
        "kategorie": "Arzt",
        "adresse": "Falkstraße 2-4, 59423 Unna, Deutschland",
        "lat": 51.53437,
        "lon": 7.6757,
        "telefon": "02303 9479930",
        "website": "http://www.mvz-unna.de/",
        "beschreibung": "",
        "fachrichtung": "Orthopädie"
    },
    {
        "name": "Praxis für Orthopädie u. Unfallchirurgie, Chirurgie, ambulantes Operieren",
        "kategorie": "Arzt",
        "adresse": "Holbeinstraße 10a, 59423 Unna, Deutschland",
        "lat": 51.53378,
        "lon": 7.67666,
        "telefon": "02303 1003920",
        "website": "https://www.hospitalverbund-mvz.de/praxis-fuer-orthopaedie-u-unfallchirurgie-chirurgie-ambulantes-operieren-d-aerztin.html",
        "beschreibung": "",
        "fachrichtung": "Orthopädie"
    },
    {
        "name": "Praxis für Physiotherapie Hans-Joachim Kurtz",
        "kategorie": "Physiotherapie",
        "adresse": "Otto-Holzapfel-Straße 5, 59427 Unna, Deutschland",
        "lat": 51.53669,
        "lon": 7.65141,
        "telefon": "02303 953400",
        "website": "",
        "beschreibung": ""
    },
    {
        "name": "Praxis für Physiotherapie und Osteopathie",
        "kategorie": "Physiotherapie",
        "adresse": "Hertingerstraße 115, 59423 Unna, Deutschland",
        "lat": 51.52311,
        "lon": 7.6789,
        "telefon": "02303 968281",
        "website": "",
        "beschreibung": ""
    },
    {
        "name": "Praxis Spink & Dr. Trockels",
        "kategorie": "Arzt",
        "adresse": "Schäferstraße 20, 59423 Unna, Deutschland",
        "lat": 51.53607,
        "lon": 7.68971,
        "telefon": "02303 770777",
        "website": "http://www.spink-trockels.de/",
        "beschreibung": "",
        "fachrichtung": "Zahnarzt"
    },
    {
        "name": "Privatzahnklinik und Privatzahnarztpraxis Unna",
        "kategorie": "Arzt",
        "adresse": "Nordring 35, 59423 Unna, Deutschland",
        "lat": 51.53633,
        "lon": 7.68593,
        "telefon": "02303 1003625",
        "website": "",
        "beschreibung": "",
        "fachrichtung": "Zahnarzt"
    },
    {
        "name": "PS Gesundheitssport Unna - Sport & Fitnessstudio",
        "kategorie": "Fitnessstudio",
        "adresse": "Käthe-Kollwitz-Ring 30, 59423 Unna, Deutschland",
        "lat": 51.53285,
        "lon": 7.68356,
        "telefon": "02303 251320",
        "website": "https://gesundheitssport-unna.de/",
        "beschreibung": ""
    },
    {
        "name": "R. Moenikes",
        "kategorie": "Arzt",
        "adresse": "Morgenstraße 1, 59423 Unna, Deutschland",
        "lat": 51.53573,
        "lon": 7.69117,
        "telefon": "02303 16787",
        "website": "",
        "beschreibung": "",
        "fachrichtung": "Orthopädie"
    },
    {
        "name": "Salinen-Apotheke",
        "kategorie": "Apotheke",
        "adresse": "Blumenstr, Kamener Str. 2 Ecke, 59425 Unna, Deutschland",
        "lat": 51.55487,
        "lon": 7.68388,
        "telefon": "02303 68267",
        "website": "http://www.salinen-apotheke-unna.de/",
        "beschreibung": ""
    },
    {
        "name": "Sandra Juditzki",
        "kategorie": "Physiotherapie",
        "adresse": "Hansastraße 78 c, 59425 Unna, Deutschland",
        "lat": 51.54075,
        "lon": 7.67376,
        "telefon": "02303 490050",
        "website": "http://www.physio-line.info/",
        "beschreibung": ""
    },
    {
        "name": "Sanitätshaus EMIL KRAFT Unna",
        "kategorie": "Sanitätshaus",
        "adresse": "Medical Center II am Christlichen Klinikum, Ob. Husemannstraße 3, 59423 Unna, Deutschland",
        "lat": 51.53718,
        "lon": 7.68617,
        "telefon": "02303 255244",
        "website": "http://www.san-kraft.de/",
        "beschreibung": "",
        "fachrichtung": ""
    },
    {
        "name": "Sanitätshaus MedCare UG",
        "kategorie": "Sanitätshaus",
        "adresse": "Hertingerstraße 22a, 59423 Unna, Deutschland",
        "lat": 51.53323,
        "lon": 7.68846,
        "telefon": "02303 9489333",
        "website": "http://www.medcare-ug.de/",
        "beschreibung": ""
    },
    {
        "name": "Sanitätshaus Tingelhoff GmbH Unna",
        "kategorie": "Sanitätshaus",
        "adresse": "Falkstraße 2, 59423 Unna, Deutschland",
        "lat": 51.5343,
        "lon": 7.67569,
        "telefon": "0231 5622410",
        "website": "https://www.tingelhoff.de/",
        "beschreibung": "",
        "fachrichtung": ""
    },
    {
        "name": "Skoliose Therapie Zentrum - Bärbel Lemberger-Kalle",
        "kategorie": "Physiotherapie",
        "adresse": "Burgring 4a, 59423 Unna, Deutschland",
        "lat": 51.53679,
        "lon": 7.69443,
        "telefon": "02303 2906163",
        "website": "http://www.skoliose-therapie-zentrum.de/",
        "beschreibung": ""
    },
    {
        "name": "Sportcenter Lenz",
        "kategorie": "Fitnessstudio",
        "adresse": "Hans-Böckler-Straße 26, 59423 Unna, Deutschland",
        "lat": 51.53033,
        "lon": 7.66235,
        "telefon": "02303 22828",
        "website": "http://www.sportcenter-lenz.de/",
        "beschreibung": ""
    },
    {
        "name": "Susan Fulfs",
        "kategorie": "Arzt",
        "adresse": "Am Hertinger Tor 2d, 59423 Unna, Deutschland",
        "lat": 51.52989,
        "lon": 7.68553,
        "telefon": "02303 21664",
        "website": "https://www.zahnaerzte-unna.de/",
        "beschreibung": "",
        "fachrichtung": "Zahnarzt"
    },
    {
        "name": "Team Fitness GmbH - Fitnessstudio in Unna",
        "kategorie": "Fitnessstudio",
        "adresse": "Hansastraße 78C, 59425 Unna, Deutschland",
        "lat": 51.54075,
        "lon": 7.67376,
        "telefon": "02303 902950",
        "website": "http://www.team-fitness.de/",
        "beschreibung": ""
    },
    {
        "name": "Technische Orthopädie Volkery",
        "kategorie": "Sanitätshaus",
        "adresse": "Hertingerstraße 37, 59423 Unna, Deutschland",
        "lat": 51.53254,
        "lon": 7.68683,
        "telefon": "02303 14056",
        "website": "https://www.to-volkery.de/",
        "beschreibung": "",
        "fachrichtung": ""
    },
    {
        "name": "Terra Sports",
        "kategorie": "Fitnessstudio",
        "adresse": "Hertingerstraße 17, 59423 Unna, Deutschland",
        "lat": 51.53351,
        "lon": 7.6879,
        "telefon": "02303 9790625",
        "website": "https://www.terra-sports.de/ems-training-unna/",
        "beschreibung": ""
    },
    {
        "name": "terra sports Unna - EMS Training",
        "kategorie": "Fitnessstudio",
        "adresse": "Markt 14, 59423 Unna, Deutschland",
        "lat": 51.53497,
        "lon": 7.68946,
        "telefon": "02303 9790625",
        "website": "https://www.terra-sports.de/ems-training-unna",
        "beschreibung": ""
    },
    {
        "name": "terra sports Unna Ring - EMS Training",
        "kategorie": "Fitnessstudio",
        "adresse": "Käthe-Kollwitz-Ring 32, 59423 Unna, Deutschland",
        "lat": 51.53286,
        "lon": 7.68242,
        "telefon": "02303 9422488",
        "website": "https://www.terra-sports.de/ems-training-unna-ring/",
        "beschreibung": ""
    },
    {
        "name": "Tursi & Wantia Physiotherapie Unna GbR",
        "kategorie": "Physiotherapie",
        "adresse": "Blumenstraße 2, 59425 Unna, Deutschland",
        "lat": 51.55487,
        "lon": 7.68388,
        "telefon": "02303 66143",
        "website": "https://www.kg-unna.de/",
        "beschreibung": ""
    },
    {
        "name": "TwinFit EMS",
        "kategorie": "Fitnessstudio",
        "adresse": "Hertingerstraße 20, 59423 Unna, Deutschland",
        "lat": 51.53335,
        "lon": 7.68876,
        "telefon": "0178 3490262",
        "website": "http://www.twinfitems.de/",
        "beschreibung": ""
    },
    {
        "name": "Ulla Maessen",
        "kategorie": "Arzt",
        "adresse": "Bahnhofstraße 17, 59423 Unna, Deutschland",
        "lat": 51.53391,
        "lon": 7.68843,
        "telefon": "02303 22070",
        "website": "",
        "beschreibung": "",
        "fachrichtung": "Frauenarzt"
    },
    {
        "name": "UNIQAESTHETICS Praxisklinik für Plastische und Ästhetische Chirurgie",
        "kategorie": "Arzt",
        "adresse": "Feldstraße 5, 59423 Unna, Deutschland",
        "lat": 51.53216,
        "lon": 7.67134,
        "telefon": "02303 9835109",
        "website": "https://www.uniqaesthetics.de/",
        "beschreibung": "",
        "fachrichtung": "Plastische Chirurgie"
    },
    {
        "name": "unnadent | Zahnarztpraxis und Dentalzentrum",
        "kategorie": "Arzt",
        "adresse": "Frankfurter Str. 69, 59425 Unna, Deutschland",
        "lat": 51.54945,
        "lon": 7.6955,
        "telefon": "02303 961000",
        "website": "https://unnadent.de/",
        "beschreibung": "",
        "fachrichtung": "Zahnarzt"
    },
    {
        "name": "Vera Wittler Praxis für Physiotherapie",
        "kategorie": "Physiotherapie",
        "adresse": "Friedrich-Ebert-Straße 46, 59425 Unna, Deutschland",
        "lat": 51.543,
        "lon": 7.68381,
        "telefon": "02303 772062",
        "website": "",
        "beschreibung": ""
    },
    {
        "name": "Wiebke Kaiser",
        "kategorie": "Arzt",
        "adresse": "Morgenstraße 1, 59423 Unna, Deutschland",
        "lat": 51.53571,
        "lon": 7.69116,
        "telefon": "",
        "website": "https://dr-minkenberg.de/",
        "beschreibung": "",
        "fachrichtung": "Allgemeinmedizin"
    },
    {
        "name": "Wolfgang Gloger Zahnarzt",
        "kategorie": "Arzt",
        "adresse": "Blumenstraße 2, 59425 Unna, Deutschland",
        "lat": 51.55491,
        "lon": 7.68389,
        "telefon": "02303 66220",
        "website": "https://www.zahnarztpraxisunna.de/",
        "beschreibung": "",
        "fachrichtung": "Zahnarzt"
    },
    {
        "name": "Wolny Thomas Praxis für Physiotherapie",
        "kategorie": "Physiotherapie",
        "adresse": "Berliner Allee 20-22, 59425 Unna, Deutschland",
        "lat": 51.54944,
        "lon": 7.6923,
        "telefon": "02303 2589783",
        "website": "http://www.unna-krankengymnastik.de/",
        "beschreibung": ""
    },
    {
        "name": "XTRAFIT Unna-Kamen Karree",
        "kategorie": "Fitnessstudio",
        "adresse": "Kamener Str. 110, 59425 Unna, Deutschland",
        "lat": 51.56377,
        "lon": 7.67741,
        "telefon": "0221 98256062",
        "website": "https://xtrafit.de/studios/unna-kamen-karree",
        "beschreibung": ""
    },
    {
        "name": "z-point Dr. Prünte und Partner MVZ-GbR",
        "kategorie": "Arzt",
        "adresse": "Bergpfad 7, 59423 Unna, Deutschland",
        "lat": 51.53114,
        "lon": 7.68709,
        "telefon": "02303 986980",
        "website": "https://mein-z-point.de/",
        "beschreibung": "",
        "fachrichtung": "Zahnarzt"
    },
    {
        "name": "Zahnarzt Schlösser",
        "kategorie": "Arzt",
        "adresse": "Am Kastanienhof 2, 59423 Unna, Deutschland",
        "lat": 51.52438,
        "lon": 7.66997,
        "telefon": "02303 983033",
        "website": "https://www.zahnarzt-in-unna.de/",
        "beschreibung": "",
        "fachrichtung": "Zahnarzt"
    },
    {
        "name": "Zahnärztliche Tagesklinik Dr. Nehlmeyer & Kollegen in Unna-Massen",
        "kategorie": "Arzt",
        "adresse": "Kleistraße 63, 59427 Unna, Deutschland",
        "lat": 51.53187,
        "lon": 7.64805,
        "telefon": "02303 53322",
        "website": "http://www.zahnarzt-nehlmeyer.de/",
        "beschreibung": "",
        "fachrichtung": "Zahnarzt"
    },
    {
        "name": "Zahnarztpraxis Alexander Reeke",
        "kategorie": "Arzt",
        "adresse": "Friedrich-Ebert-Straße 14, 59425 Unna, Deutschland",
        "lat": 51.54079,
        "lon": 7.68808,
        "telefon": "02303 12075",
        "website": "http://www.reeke.org/",
        "beschreibung": "",
        "fachrichtung": "Zahnarzt"
    },
    {
        "name": "Zahnarztpraxis Dr. Hartmut Böcker & Dr. Henrike Mörlein",
        "kategorie": "Arzt",
        "adresse": "Schäferstraße 10, 59423 Unna, Deutschland",
        "lat": 51.53548,
        "lon": 7.68939,
        "telefon": "02303 14515",
        "website": "https://boecker-moerlein.de/",
        "beschreibung": "",
        "fachrichtung": "Zahnarzt"
    },
    {
        "name": "Zahnarztpraxis Dr. Lutz Gerland",
        "kategorie": "Arzt",
        "adresse": "Schützenstraße 33, 59425 Unna, Deutschland",
        "lat": 51.55459,
        "lon": 7.67885,
        "telefon": "02303 69469",
        "website": "http://www.zahnarzt-lutzgerland-unna.de/",
        "beschreibung": "",
        "fachrichtung": "Zahnarzt"
    },
    {
        "name": "Zahnarztpraxis Dr. Marcus A. Köster",
        "kategorie": "Arzt",
        "adresse": "Käthe-Kollwitz-Ring 38-40, 59423 Unna, Deutschland",
        "lat": 51.53323,
        "lon": 7.68134,
        "telefon": "02303 15623",
        "website": "https://www.zahnarztpraxis-dr-koester.de/",
        "beschreibung": "",
        "fachrichtung": "Zahnarzt"
    },
    {
        "name": "Zahnarztpraxis Dr. med. dent. Stephanie Pfaff",
        "kategorie": "Arzt",
        "adresse": "Massener Hellweg 5, 59427 Unna, Deutschland",
        "lat": 51.5393,
        "lon": 7.65273,
        "telefon": "02303 50249",
        "website": "http://www.dr-stephanie-pfaff.de/",
        "beschreibung": "",
        "fachrichtung": "Zahnarzt"
    },
    {
        "name": "Zahnklinik Dr. Schumacher, Dr. Becker und Kollegen",
        "kategorie": "Arzt",
        "adresse": "Nordring 35, 59423 Unna, Deutschland",
        "lat": 51.5365,
        "lon": 7.68612,
        "telefon": "02303 969798",
        "website": "https://www.zahnarztpraxis-schumacher.net/",
        "beschreibung": "",
        "fachrichtung": "Zahnarzt"
    },
    {
        "name": "ZahnStyle Unna GmbH",
        "kategorie": "Arzt",
        "adresse": "Hertingerstraße 65, 59423 Unna, Deutschland",
        "lat": 51.52864,
        "lon": 7.68299,
        "telefon": "02303 962320",
        "website": "http://www.zahnstyle.de/",
        "beschreibung": "",
        "fachrichtung": "Zahnarzt"
    },
    {
        "name": "Zahnteam am Klei | Die Zahnarztpraxis in Unna-Massen",
        "kategorie": "Arzt",
        "adresse": "Kleistraße 2, 59427 Unna, Deutschland",
        "lat": 51.53791,
        "lon": 7.64936,
        "telefon": "02303 53233",
        "website": "https://www.zahnteam-klei.de/",
        "beschreibung": "",
        "fachrichtung": "Zahnarzt"
    },
    {
        "name": "Zentrum Zahngesundheit Ruhr - Dres. Schweppe und Kollegen",
        "kategorie": "Arzt",
        "adresse": "Westhemmerder Weg 49, 59427 Unna, Deutschland",
        "lat": 51.54873,
        "lon": 7.80601,
        "telefon": "02308 399",
        "website": "https://www.zzr.de/?mtm_campaign=google-unternehmensprofil-unna-website",
        "beschreibung": "",
        "fachrichtung": "Zahnarzt"
    },
    {
        "name": "Andrea Sacher Psychotherapeutin",
        "kategorie": "Psychotherapie",
        "adresse": "Lortzingstraße 68, 59423 Unna, Deutschland",
        "lat": 51.53728,
        "lon": 7.67699,
        "telefon": "02303 12337",
        "website": "",
        "beschreibung": ""
    },
    {
        "name": "Dipl.-Psych. Heiko Lammert",
        "kategorie": "Psychotherapie",
        "adresse": "Beethovenring 15, 59423 Unna, Deutschland",
        "lat": 51.53864,
        "lon": 7.68398,
        "telefon": "02303 690054",
        "website": "https://www.psychotherapie-lammert.de/",
        "beschreibung": ""
    },
    {
        "name": "Dipl.-Psychologin Hein Sigrid",
        "kategorie": "Psychotherapie",
        "adresse": "Bahnhofstraße 3, 59423 Unna, Deutschland",
        "lat": 51.53507,
        "lon": 7.69056,
        "telefon": "02308 120494",
        "website": "http://www.kinder-im-lot.de/",
        "beschreibung": ""
    },
    {
        "name": "Diplom Psychologe Ludger Rosengarten",
        "kategorie": "Psychotherapie",
        "adresse": "Nordring 3, 59423 Unna, Deutschland",
        "lat": 51.53789,
        "lon": 7.68981,
        "telefon": "02303 237149",
        "website": "http://www.ludger-rosengarten.de/",
        "beschreibung": ""
    },
    {
        "name": "DR. MICHAEL KRUG",
        "kategorie": "Psychotherapie",
        "adresse": "Massener Str. 9, 59423 Unna, Deutschland",
        "lat": 51.53449,
        "lon": 7.68808,
        "telefon": "02303 6729177",
        "website": "http://psychoanalyse-krug.de/",
        "beschreibung": ""
    },
    {
        "name": "ELMA - Praxis für Systemische Therapie und Soziotherapie",
        "kategorie": "Psychotherapie",
        "adresse": "Friedrich-Ebert-Straße 65, 59425 Unna, Deutschland",
        "lat": 51.54565,
        "lon": 7.68223,
        "telefon": "0179 4498616",
        "website": "http://www.elma-therapie.de/",
        "beschreibung": ""
    },
    {
        "name": "Frau Dipl.-Psych. Claudia Flaving",
        "kategorie": "Psychotherapie",
        "adresse": "Morgenstraße 3, 59423 Unna, Deutschland",
        "lat": 51.5357,
        "lon": 7.69142,
        "telefon": "02303 967676",
        "website": "",
        "beschreibung": ""
    },
    {
        "name": "Frau Dipl.-Psych. Friederike Heinzel",
        "kategorie": "Psychotherapie",
        "adresse": "Ob. Husemannstraße 3, 59423 Unna, Deutschland",
        "lat": 51.53718,
        "lon": 7.68617,
        "telefon": "02303 256666",
        "website": "",
        "beschreibung": ""
    },
    {
        "name": "Frau Dipl.-Psych. Konstanze Wortmann",
        "kategorie": "Psychotherapie",
        "adresse": "Morgenstraße 39, 59423 Unna, Deutschland",
        "lat": 51.5349,
        "lon": 7.69638,
        "telefon": "02303 237396",
        "website": "https://konstanzewortmann.de/",
        "beschreibung": ""
    },
    {
        "name": "Frau Dr. med. Ruth Püttmann",
        "kategorie": "Psychotherapie",
        "adresse": "Morgenstraße 48, 59423 Unna, Deutschland",
        "lat": 51.53528,
        "lon": 7.69752,
        "telefon": "02303 22199",
        "website": "",
        "beschreibung": ""
    },
    {
        "name": "Frauke Rabelt Praxis Psychotherapie",
        "kategorie": "Psychotherapie",
        "adresse": "Westring 4, 59423 Unna, Deutschland",
        "lat": 51.53367,
        "lon": 7.68555,
        "telefon": "02303 8710060",
        "website": "",
        "beschreibung": ""
    },
    {
        "name": "Herr Dr. med. Christian Kuhlmann",
        "kategorie": "Psychiatrie",
        "adresse": "Morgenstraße 48, 59423 Unna, Deutschland",
        "lat": 51.53528,
        "lon": 7.69752,
        "telefon": "02303 962656",
        "website": "",
        "beschreibung": ""
    },
    {
        "name": "Herr Peter Rücker",
        "kategorie": "Psychotherapie",
        "adresse": "Friedrich-Ebert-Straße 58 in, 59425 Unna, Deutschland",
        "lat": 51.54379,
        "lon": 7.68222,
        "telefon": "02303 256610",
        "website": "https://www.praxis-ruecker.de/",
        "beschreibung": ""
    },
    {
        "name": "Janine Müller (M.Sc. Klinische Psychologie)",
        "kategorie": "Psychotherapie",
        "adresse": "Markt 16, 59423 Unna, Deutschland",
        "lat": 51.53504,
        "lon": 7.68973,
        "telefon": "0177 4736038",
        "website": "https://psychotherapie-brocks.de/",
        "beschreibung": ""
    },
    {
        "name": "Jennifer Angersbach - Paartherapie & Personzentrierte Beratung & Weiterbildung (GwG e.V.)",
        "kategorie": "Psychotherapie",
        "adresse": "Hertingerstraße 81, 59423 Unna, Deutschland",
        "lat": 51.52744,
        "lon": 7.68181,
        "telefon": "",
        "website": "https://www.jennifer-angersbach.de/",
        "beschreibung": ""
    },
    {
        "name": "Karin Bartscher Heilpraktikerin Psychotherapie",
        "kategorie": "Psychotherapie",
        "adresse": "Ziegelstraße 14, 59423 Unna, Deutschland",
        "lat": 51.53202,
        "lon": 7.67908,
        "telefon": "02303 942289",
        "website": "https://www.bartscher-gestalttherapie.de/",
        "beschreibung": ""
    },
    {
        "name": "Kevin Rosenbaum",
        "kategorie": "Psychotherapie",
        "adresse": "Bahnhofstraße 12, 59423 Unna, Deutschland",
        "lat": 51.53568,
        "lon": 7.69065,
        "telefon": "02303 772030",
        "website": "http://psychotherapie-rosenbaum.de/",
        "beschreibung": ""
    },
    {
        "name": "KJP UNNA - Praxis für Psychotherapie - Meltem YAVUZ",
        "kategorie": "Psychotherapie",
        "adresse": "Bahnhofstraße 12, 59423 Unna, Deutschland",
        "lat": 51.53567,
        "lon": 7.69058,
        "telefon": "02303 770849",
        "website": "http://kjp-unna.de/",
        "beschreibung": ""
    },
    {
        "name": "KJP UNNA Praxis für Kinder- und Jugendpsychotherapie",
        "kategorie": "Psychotherapie",
        "adresse": "Bahnhofstraße 12, 59423 Unna, Deutschland",
        "lat": 51.53568,
        "lon": 7.69063,
        "telefon": "02303 770849",
        "website": "https://www.kjp-unna.de/",
        "beschreibung": ""
    },
    {
        "name": "LWL - Klinik Dortmund Tagesklinik Unna",
        "kategorie": "Psychiatrie",
        "adresse": "Falkstraße 10, 59423 Unna, Deutschland",
        "lat": 51.53264,
        "lon": 7.67582,
        "telefon": "02303 952440",
        "website": "",
        "beschreibung": ""
    },
    {
        "name": "Magdalena Warnsing Systemische Therapie, Beratung und Supervision",
        "kategorie": "Psychotherapie",
        "adresse": "Birkenweg 18, 59425 Unna, Deutschland",
        "lat": 51.54355,
        "lon": 7.69069,
        "telefon": "01577 9427722",
        "website": "http://magdalena-warnsing.de/",
        "beschreibung": ""
    },
    {
        "name": "Praxen für Psychotherapie (Frigge/Krampe/Schmidt)",
        "kategorie": "Psychotherapie",
        "adresse": "Massener Str. 59, 59423 Unna, Deutschland",
        "lat": 51.53473,
        "lon": 7.68015,
        "telefon": "02303 9475404",
        "website": "http://www.pp-unna.de/",
        "beschreibung": ""
    },
    {
        "name": "Praxis Carsten Höltermann Heilpraktiker für Psychotherapie",
        "kategorie": "Psychotherapie",
        "adresse": "Bruchstraße 1, 59425 Unna, Deutschland",
        "lat": 51.54452,
        "lon": 7.73585,
        "telefon": "0176 80048148",
        "website": "https://www.hoeltermann-praxis.de/",
        "beschreibung": ""
    },
    {
        "name": "Praxis für Neurologie, Psychiatrie und Psychotherapie Unna",
        "kategorie": "Psychiatrie",
        "adresse": "Campus Center, Falkstraße 2, 59423 Unna, Deutschland",
        "lat": 51.53428,
        "lon": 7.6759,
        "telefon": "02303 300261",
        "website": "",
        "beschreibung": ""
    },
    {
        "name": "Praxis Glückauf - Hypnose & Hypnosetherapie für Erwachsene & Jugendliche - Bert Rother",
        "kategorie": "Psychotherapie",
        "adresse": "Am Südfriedhof 9c, 59423 Unna, Deutschland",
        "lat": 51.52879,
        "lon": 7.70021,
        "telefon": "0162 9191969",
        "website": "http://www.praxis-glueckauf.de/",
        "beschreibung": ""
    },
    {
        "name": "Privatpraxis für Psychotherapie Nele Kleibaum",
        "kategorie": "Psychotherapie",
        "adresse": "Bahnhofstraße 5, 59423 Unna, Deutschland",
        "lat": 51.53531,
        "lon": 7.69064,
        "telefon": "0176 20034912",
        "website": "",
        "beschreibung": ""
    },
    {
        "name": "Privatpraxis für Psychotherapie und Coaching Dr. Bettina Reiffer-Wiesel",
        "kategorie": "Psychotherapie",
        "adresse": "Mozartstraße 15, 59423 Unna, Deutschland",
        "lat": 51.53788,
        "lon": 7.68474,
        "telefon": "02303 9682841",
        "website": "http://www.reiffer-wiesel.de/",
        "beschreibung": ""
    },
    {
        "name": "Prof. Dr. Zaza Katsarava",
        "kategorie": "Psychiatrie",
        "adresse": "Holbeinstraße 10, 59423 Unna, Deutschland",
        "lat": 51.53378,
        "lon": 7.67666,
        "telefon": "02303 1002250",
        "website": "https://www.christliches-klinikum.de/neurologie-neurologische-fruehrehabilitation-und-epilepsiezentrum.html",
        "beschreibung": ""
    },
    {
        "name": "Psychotherapeutische Praxis Berthold Ebel",
        "kategorie": "Psychotherapie",
        "adresse": "Hertingerstraße 49, 59423 Unna, Deutschland",
        "lat": 51.53132,
        "lon": 7.6858,
        "telefon": "02303 918282",
        "website": "",
        "beschreibung": ""
    },
    {
        "name": "Psychotherapeutische Praxis Lammert",
        "kategorie": "Psychotherapie",
        "adresse": "Beethovenring 15, 59423 Unna, Deutschland",
        "lat": 51.53864,
        "lon": 7.68388,
        "telefon": "02303 690054",
        "website": "https://www.psychotherapie-lammert.de/",
        "beschreibung": ""
    },
    {
        "name": "Psychotherapie am Kirchplatz Alicia Frigge",
        "kategorie": "Psychotherapie",
        "adresse": "Bahnhofstraße 3, 59423 Unna, Deutschland",
        "lat": 51.53507,
        "lon": 7.69056,
        "telefon": "02303 9296868",
        "website": "",
        "beschreibung": ""
    },
    {
        "name": "Systemische Beratung/ Therapie, Familientherapie, Supervision & Coaching, Familienaufstellung",
        "kategorie": "Psychotherapie",
        "adresse": "Nordring 34, 59423 Unna, Deutschland",
        "lat": 51.53621,
        "lon": 7.6864,
        "telefon": "0178 1977682",
        "website": "http://www.beratungspraxis-voss.de/",
        "beschreibung": ""
    },
    {
        "name": "Uta Wastl Tanja Simon",
        "kategorie": "Psychotherapie",
        "adresse": "Bahnhofstraße 17, 59423 Unna, Deutschland",
        "lat": 51.53598,
        "lon": 7.69121,
        "telefon": "02303 9690942",
        "website": "",
        "beschreibung": ""
    }
]